[{"id":1,"produits":"Beurre de ferme,Fromages,Gaufres fourrees,Lait,Oeufs,Pommes de terre,Quiches et tartes","commune":"MARQUETTE-LEZ-LILLE","societe":"GAEC DES TROIS CLOCHERS","pointVente":"Vente a la ferme","voie":"DE QUESNOY","horaires":"Lundi, Mardi, Mercredi, Vendredi, Samedi de 10h00 a 12h30\n Lundi, Vendredi de 14h00 a 19h00\n Mardi, Mercredi, Jeudi, Samedi de 15h00 a 18h00","lat":50.6665,"lng":3.04498},{"id":2,"produits":"Aubergines,Betteraves rouges,Carottes,Choux,Concombre,Confitures,Celeris,Echalote,Endives,Fraises,Navets,Oignons,Poireaux,Poivrons,Pates,Salades,Tomates","commune":"LEERS","societe":"ANTOINE DAL","pointVente":"Vente a la ferme","voie":"LOUISE DE BETTIGNIES","horaires":"Lundi, Mardi, Mercredi, Jeudi, Vendredi, Samedi de 17h00 a 18h30\n Lundi, Mardi, Mercredi, Jeudi, Vendredi, Samedi, Dimanche de 09h00 a 12h00","lat":50.6784,"lng":3.25106},{"id":3,"produits":"Oeufs,Volaille","commune":"WAMBRECHIES","societe":"ENTREPRISE INDIVIDUELLE","pointVente":"Vente a la ferme","voie":"DE QUESNOY","horaires":"Lundi, Mardi, Mercredi, Jeudi, Vendredi, Samedi de 16h00 a 19h30\n Lundi, Mardi, Mercredi, Jeudi, Vendredi, Samedi, Dimanche de 08h30 a 12h30","lat":50.6899,"lng":3.05702},{"id":4,"produits":"Endives,Fraises,Lait,Oeufs,Pommes de terre","commune":"BAISIEUX","societe":"BERNARD CHANTRAINNE","pointVente":"Vente a la ferme","voie":"DE CAMPHIN","horaires":"Lundi, Mardi, Mercredi, Jeudi, Vendredi, Samedi de 14h00 a 18h30\n Lundi, Mardi, Mercredi, Jeudi, Vendredi, Samedi, Dimanche de 09h00 a 12h00","lat":50.6047,"lng":3.25283},{"id":5,"produits":"Aubergines,Courgettes,Endives,Haricots,Laitues,Oeufs,Poireaux,Pommes de terre,Tomates","commune":"CHERENG","societe":"JEAN-LOUIS DELSALLE","pointVente":"Vente a la ferme","voie":"DU GENERAL LECLERC","horaires":"Dimanche de 09h00 a 13h00\n Lundi, Mardi, Mercredi, Jeudi, Samedi de 09h00 a 19h00\n Vendredi de 09h00 a 17h00","lat":50.6174,"lng":3.21163},{"id":6,"produits":"Arbres,Arbustes,Horticulture,Plantes a massifs","commune":"WAMBRECHIES","societe":"PEPINIERES DU COLOMBIER","pointVente":"Vente a la ferme","voie":"DE QUESNOY","horaires":"Lundi, Mardi, Mercredi, Jeudi, Vendredi, Samedi de 14h00 a 18h00\n Lundi, Mardi, Mercredi, Jeudi, Vendredi, Samedi, Dimanche de 08h00 a 12h00","lat":50.6938,"lng":3.05053},{"id":7,"produits":"Beurre de ferme,Fromage blanc,Fromages,Lait battu,Oeufs,Yaourts","commune":"VENDEVILLE","societe":"EARL CARRE","pointVente":"Vente a la ferme","voie":"RUE DE FACHES(RD145H)","horaires":"Lundi, Mardi, Mercredi, Jeudi, Vendredi, Samedi de 09h30 a 19h00","lat":50.5773,"lng":3.07805},{"id":8,"produits":"Boudins,Brochettes,Charcuterie,Cotelettes,Echine,Escalopes,Filets mignons,Filets mignons,Poitrine,Rouelles jambon et epaule,Rotis,Salaisons,Saucisserie,Sautes,Viande de boeuf,Viande de porc,Volaille","commune":"TEMPLEMARS","societe":"EARL DE LA FLAMENDERIE","pointVente":"Vente a la ferme","voie":"ETIENNE DOLET","horaires":"Mercredi, Vendredi, Samedi de 08h30 a 12h30\n Mercredi, Vendredi, Samedi de 15h00 a 19h00","lat":50.5712,"lng":3.0535},{"id":9,"produits":"Charcuterie,Oeufs,Viande de boeuf,Viande de porc,Viande de veau,Volaille","commune":"LINSELLES","societe":"LA FERME SAINTE BARBE","pointVente":"Vente a la ferme","voie":"DE LA VIGNE","horaires":"Mardi de 15h00 a 19h00\n Mercredi, Vendredi de 09h00 a 12h30\n Mercredi, Vendredi de 15h00 a 19h00\n Samedi de 09h00 a 19h00","lat":50.7418,"lng":3.06085},{"id":10,"produits":"Beurre de ferme,Biscuits et gateaux,Charcuterie,Confitures,Creme fraiche,Fromage blanc,Gaufres fourrees,Gaufres seches,Lait battu,Pommes de terre,Quiches et tartes,Volaille,Vols-au-vent,Yaourts","commune":"FRELINGHIEN","societe":"JEAN-PAUL BOUSSEMART","pointVente":"Vente a la ferme","voie":"AU VENT","horaires":"Lundi, Mardi, Mercredi, Jeudi, Vendredi, Samedi, Dimanche de 08h00 a 20h00","lat":50.7122,"lng":2.93475},{"id":11,"produits":"Essaims d'abeilles,Essaims d'abeilles,Miel","commune":"HALLUIN","societe":"L'ABEILLE DU MONT","pointVente":"Vente a la ferme","voie":"DU BILLEMONT","horaires":"Lundi, Mardi, Mercredi, Jeudi, Vendredi de 14h00 a 19h00\n Samedi de 10h00 a 19h00","lat":50.761,"lng":3.13621},{"id":12,"produits":"Beurre de ferme,Lait,Oeufs,Pommes de terre,Yaourts","commune":"ERQUINGHEM-LYS","societe":"GAEC DE LA HAUTEFEUILLE","pointVente":"Vente a la ferme","voie":"D ARMENTIERES","horaires":"Mardi, Mercredi, Vendredi de 09h30 a 12h30\n Mardi, Mercredi, Vendredi de 16h00 a 19h00\n Samedi de 09h30 a 12h30","lat":50.6815,"lng":2.86059},{"id":13,"produits":"Fraises,Viande de boeuf","commune":"QUESNOY SUR DEULE","societe":"MICHEL DECHERF","pointVente":"Vente a la ferme","voie":"DES PATARDS","horaires":"Dimanche de 10h00 a 13h00\n Lundi, Mardi, Mercredi, Jeudi, Vendredi, Samedi de 09h30 a 20h00","lat":50.7249,"lng":3.00194},{"id":14,"produits":"Beurre de ferme,Bieres,Creme fraiche,Fromage blanc,Lait cru,Lait cru,Oeufs,Pommes de terre,Pommes de terre,Produits de la ruche,Yaourts","commune":"TOURCOING","societe":"LA FERME CASTEL","pointVente":"Vente a la ferme","voie":"RUE LIEUTENANT COLONEL DUCHATELET","horaires":"Mardi, Mercredi, Jeudi, Vendredi de 15h30 a 18h30\n Mardi, Mercredi, Vendredi de 09h00 a 12h30\n Samedi de 09h00 a 18h30","lat":50.7323,"lng":3.18952},{"id":15,"produits":"Confitures,Fleurs,Gaufres fourrees,Oeufs,Quiches et tartes,Soupes","commune":"SECLIN","societe":"LA FERME DU PARADIS","pointVente":"Vente a la ferme","voie":"RUE ROGER BOUVRY(RD925A)","horaires":"Lundi, Mardi, Mercredi, Jeudi, Vendredi, Samedi, Dimanche de 14h00 a 19h30\n Mardi, Mercredi, Jeudi, Vendredi, Samedi, Dimanche de 09h30 a 12h00","lat":50.5435,"lng":3.02271},{"id":16,"produits":"Annuelles et bisannuelles,Compositions et bouquets,Plantes a massifs,Vivaces","commune":"TOURCOING","societe":"LA FLEUR AU BOIS D'ACHELLES","pointVente":"Vente a la ferme","voie":"RUE DE LINSELLES","horaires":"Dimanche de 09h30 a 12h30\n Mardi, Mercredi, Jeudi, Vendredi, Samedi de 09h30 a 12h30\n Mardi, Mercredi, Jeudi, Vendredi, Samedi de 14h30 a 19h00","lat":50.7308,"lng":3.12823},{"id":17,"produits":"Bieres,Epicerie,Foie gras,Fraises,Fromages,Produits laitiers,Viande de boeuf,Viande de porc,Viande de veau,Vin,Volaille","commune":"RONCQ","societe":"LA FERME DU VINAGE","pointVente":"Vente a la ferme","voie":"MADAME DEFLANDRE","horaires":"Lundi, Mardi, Mercredi, Jeudi, Vendredi, Samedi de 09h30 a 12h30\n Lundi, Mardi, Mercredi, Jeudi, Vendredi, Samedi de 14h00 a 19h00","lat":50.7561,"lng":3.09776},{"id":18,"produits":"Jus,Poires,Pommes,Petillants","commune":"ERQUINGHEM-LYS","societe":"LES VERGERS DE L'ALLOEU","pointVente":"Vente a la ferme","voie":"DE L ALLOEU","horaires":"Mardi, Mercredi, Vendredi de 15h00 a 19h00\n Samedi de 10h00 a 18h00","lat":50.6737,"lng":2.8291},{"id":19,"produits":"Fromages,Legumes de saison","commune":"WAVRIN","societe":"BIOCOOP VERT'TIGE","pointVente":"Vente a la ferme","voie":"RUE ANATOLE FRANCE(RD241)","horaires":"Mardi, Mercredi, Jeudi, Vendredi, Samedi de 10h00 a 13h00\n Mardi, Mercredi, Jeudi, Vendredi, Samedi de 14h00 a 19h00","lat":50.5831,"lng":2.93962},{"id":20,"produits":"Arbres,Arbustes,Coniferes,Sapins de Noel,Vivaces","commune":"WAVRIN","societe":"JOSEPH VANMARCKE","pointVente":"Vente a la ferme","voie":"RUE DE LILLE","horaires":"Dimanche de 10h00 a 12h00\n Lundi, Mardi, Mercredi, Jeudi, Vendredi, Samedi de 09h00 a 12h00\n Lundi, Mardi, Mercredi, Jeudi, Vendredi, Samedi de 14h00 a 19h00","lat":50.5798,"lng":2.93278},{"id":21,"produits":"Fleurs,Fraises,Plantes a massifs,Poires,Pommes,Suspensions","commune":"CHERENG","societe":"MAISON ZOUTE","pointVente":"Vente a la ferme","voie":"RUE DU MAREQUAIX","horaires":"Dimanche de 09h00 a 12h30\n Lundi, Mardi, Mercredi, Jeudi, Vendredi, Samedi de 08h30 a 12h30\n Lundi, Mardi, Mercredi, Jeudi, Vendredi, Samedi de 14h00 a 19h00","lat":50.6131,"lng":3.2162},{"id":22,"produits":"Ble,Carottes,Choux,Celeris,Mais,Oeufs,Persil,Poireaux,Pommes de terre,Pommes de terre,Salades","commune":"HALLUIN","societe":"LA FERME DU PELLEGRAIN","pointVente":"Vente a la ferme","voie":"DE BOUSBECQUE","horaires":"Lundi, Mardi, Mercredi, Vendredi, Samedi de 09h00 a 12h00\n Lundi, Mardi, Mercredi, Vendredi, Samedi de 15h00 a 19h00","lat":50.7609,"lng":3.10909},{"id":23,"produits":"Asperges,Beurre de ferme,Creme fraiche,Endives,Fraises,Fromage blanc,Fromages,Gaufres fourrees,Jus,Lait battu,Lait battu,Lait cru,Oeufs,Poires,Pommes,Soupes,Volaille","commune":"TOUFFLERS","societe":"EARL FERME CIMETIERE","pointVente":"Vente a la ferme","voie":"DES CHAMPS","horaires":"Dimanche de 11h00 a 12h00\n Lundi, Mardi, Mercredi, Jeudi, Vendredi, Samedi de 08h30 a 12h30\n Lundi, Mardi, Mercredi, Jeudi, Vendredi, Samedi de 16h30 a 19h30","lat":50.6596,"lng":3.22939},{"id":24,"produits":"Beurre de ferme,Biscuits et gateaux,Creme fraiche,Jus,Lait battu,Lait battu,Oeufs,Yaourts","commune":"LINSELLES","societe":"LA FERME D'HONDT","pointVente":"Vente a la ferme","voie":"DE LA VISCOURT","horaires":"Jeudi de 15h00 a 19h00\n Mardi, Mercredi, Jeudi, Vendredi, Samedi de 15h00 a 19h00\n Mardi, Mercredi, Vendredi, Samedi de 09h00 a 13h00","lat":50.7365,"lng":3.09753},{"id":25,"produits":"Beurre de ferme,Lait battu,Oeufs,Oignons,Pommes de terre","commune":"VERLINGHEM","societe":"EARL DE LA DREVE","pointVente":"Vente a la ferme","voie":"D YPRES","horaires":"Mardi, Mercredi, Jeudi, Vendredi, Samedi de 09h00 a 19h00","lat":50.6981,"lng":3.01627},{"id":26,"produits":"Fleurs,Plantes a massifs,Plants de legumes,Suspensions","commune":"FRELINGHIEN","societe":"LA MAISON DU GERANIUM","pointVente":"Vente a la ferme","voie":"DE L AVENTURE","horaires":"Dimanche de 09h00 a 12h00\n Dimanche de 15h00 a 19h00\n Lundi, Mardi, Mercredi, Jeudi, Vendredi, Samedi de 13h30 a 19h00\n Lundi, Mardi, Mercredi, Jeudi, Vendredi, Samedi, Dimanche de 09h00 a 12h00","lat":50.6928,"lng":2.95345},{"id":27,"produits":"Aubergines,Beurre de ferme,Carottes,Choux,Celeris,Fleurs,Fraises,Frites,Haricots,Jus,Legumes conditionnes sous-vide,Navets,Piments,Poireaux,Poivrons,Pommes de terre,Pommes de terre,Salades,Soupes,Tomates,Yaourts","commune":"WAVRIN","societe":"ACI LA FERME DES PETITES HAIES","pointVente":"Vente a la ferme","voie":"RUE ANATOLE FRANCE(RD241)","horaires":"Lundi, Mardi, Mercredi, Jeudi, Vendredi de 08h00 a 12h00\n Lundi, Mardi, Mercredi, Jeudi, Vendredi de 13h30 a 17h30\n Samedi de 09h00 a 12h00","lat":50.5831,"lng":2.93962},{"id":28,"produits":"Jus,Poires,Pommes","commune":"HERLIES","societe":"FRUITS DES WEPPES","pointVente":"Vente a la ferme","voie":"CHEMIN EXPL CHR103 DE LA CLIQUETERIE","horaires":"Lundi, Mardi, Mercredi, Jeudi, Vendredi de 09h00 a 12h30\n Lundi, Mardi, Mercredi, Jeudi, Vendredi de 14h00 a 19h00\n Samedi de 09h30 a 12h30","lat":50.5833,"lng":2.83001},{"id":29,"produits":"Carottes,Concombre,Courgettes,Celeris,Navets,Persil,Poireaux,Radis,Rhubarbe,Tomates","commune":"HANTAY","societe":"LES MARAICHERS ARNOUT","pointVente":"Vente a la ferme","voie":"DU BOIS","horaires":"Samedi de 08h30 a 12h30","lat":50.5436,"lng":2.87086},{"id":30,"produits":"Oeufs,Volaille","commune":"WERVICQ-SUD","societe":"EARL MARLIERE","pointVente":"Vente a la ferme","voie":"DE LA JUSTICE","horaires":"Lundi, Mardi, Mercredi, Jeudi, Vendredi de 14h00 a 19h00\n Lundi, Mardi, Mercredi, Jeudi, Vendredi, Samedi de 08h30 a 12h00","lat":50.7504,"lng":3.04926},{"id":31,"produits":"Arum,Compositions et bouquets,Geraniums,Plants de legumes,Rosiers,Sufinias,Vivaces","commune":"VERLINGHEM","societe":"LA ROSERAIE DE VERLINGHEM","pointVente":"Vente a la ferme","voie":"DE LAMBERSART","horaires":"Dimanche de 09h30 a 12h30\n Lundi, Mardi, Mercredi, Jeudi, Vendredi de 09h00 a 12h00\n Lundi, Mardi, Mercredi, Jeudi, Vendredi de 14h00 a 19h00\n Samedi de 09h00 a 19h00","lat":50.6671,"lng":3.00695},{"id":32,"produits":"Beurre de ferme,Creme fraiche,Fraises,Fromage blanc,Lait cru,Oeufs,Pommes de terre,Volaille,Yaourts","commune":"LOOS","societe":"LA FERME DUTHOIT","pointVente":"Vente a la ferme","voie":"DU CHEVALIER DE LA BARRE","horaires":"Lundi, Mardi, Mercredi, Jeudi, Vendredi de 08h30 a 11h00\n Lundi, Mardi, Mercredi, Jeudi, Vendredi, Samedi de 17h00 a 19h00\n Samedi de 08h30 a 12h00","lat":50.6057,"lng":3.01658},{"id":33,"produits":"Confitures,Gaufres fourrees,Lapin,Pommes de terre,Soupes,Viande de boeuf,Viande de porc,Volaille","commune":"HAUBOURDIN","societe":"ACQUETTE","pointVente":"Vente a la ferme","voie":"ROGER SALENGRO","horaires":"Lundi, Mardi, Mercredi, Jeudi, Vendredi de 09h30 a 12h00\n Lundi, Mardi, Mercredi, Jeudi, Vendredi de 15h00 a 19h00\n Samedi de 09h30 a 12h00\n Samedi de 16h00 a 19h00","lat":50.6006,"lng":2.99565},{"id":34,"produits":"Choux-fleur,Celeris,Echalote,Fraises,Oeufs,Oignons,Poires,Pommes,Tomates","commune":"LA BASSEE","societe":"EARL DU BEAUPUITS","pointVente":"Vente a la ferme","voie":"D ESTAIRES","horaires":"Jeudi de 14h00 a 19h00\n Mardi, Mercredi, Vendredi de 09h00 a 19h00\n Samedi de 09h00 a 16h30","lat":50.5469,"lng":2.79629},{"id":35,"produits":"Fraises,Framboises,Salades,Tomates","commune":"COMINES","societe":"LA CUEILLETTE DE COMINES","pointVente":"Vente a la ferme","voie":"DE LA TIMBORNE","horaires":"Dimanche de 10h30 a 12h30\n Mardi, Mercredi, Jeudi, Vendredi de 14h30 a 19h00\n Samedi de 10h30 a 12h30\n Samedi de 14h30 a 19h00","lat":50.7514,"lng":3.01205},{"id":36,"produits":"Bieres,Coloquintes decoratives,Courges,Pates seches","commune":"MARQUILLIES","societe":"FERME DES MOTTES","pointVente":"Vente a la ferme","voie":"DE LA FERME DES MOTTES","horaires":"Samedi de 09h00 a 13h00","lat":50.5515,"lng":2.85132},{"id":37,"produits":"Beurre de ferme,Creme fraiche,Fromage blanc,Fromages,Lait,Mousse au chocolat,Oeufs,Yaourts","commune":"HALLUIN","societe":"LA FERME DU COLBRAS","pointVente":"Vente a la ferme","voie":"DE LINSELLES","horaires":"Lundi, Mardi, Mercredi de 15h00 a 19h00\n Lundi, Mardi, Mercredi, Jeudi, Vendredi de 09h00 a 12h30","lat":50.7673,"lng":3.09937},{"id":38,"produits":"Fromages,Oeufs,Pommes de terre,Pates","commune":"FRELINGHIEN","societe":"LA HOULETTE","pointVente":"Vente a la ferme","voie":"DE MESSINES","horaires":"Lundi, Mardi, Mercredi, Jeudi, Vendredi, Samedi, Dimanche de 08h00 a 20h00","lat":50.7088,"lng":2.94859},{"id":39,"produits":"Echalote,Fraises,Framboises,Plantes a massifs,Poivrons,Radis,Tomates","commune":"WAMBRECHIES","societe":"EARL GRAVE","pointVente":"Vente a la ferme","voie":"CHEMIN DES TROIS TILLEULS","horaires":"Lundi, Mardi, Mercredi, Jeudi, Vendredi de 09h00 a 12h30\n Lundi, Mardi, Mercredi, Jeudi, Vendredi de 14h00 a 19h00\n Samedi, Dimanche de 09h00 a 12h30\n Samedi, Dimanche de 14h00 a 19h00","lat":50.7185,"lng":3.0604},{"id":40,"produits":"Beurre de ferme,Creme fraiche,Fromages,Jus,Lait battu,Lait battu,Yaourts","commune":"SAILLY-LEZ-LANNOY","societe":"LA FERME SELOSSE","pointVente":"Vente a la ferme","voie":"RUE DE WILLEMS(1) RD90","horaires":"Lundi de 16h30 a 19h00\n Mercredi, Vendredi, Samedi de 10h00 a 13h00","lat":50.646,"lng":3.22953},{"id":41,"produits":"Escargots cuisines prets a mettre au four,Escargots prepares prets a cuisiner,Escargots vivants","commune":"QUESNOY SUR DEULE","societe":"LES ESCARGOTS DU VIEUX CAISNOIT","pointVente":"Vente a la ferme","voie":"CHEMIN DE GLATTIGNIES","horaires":"Vendredi, Samedi de 14h00 a 19h00","lat":50.7067,"lng":3.02332},{"id":42,"produits":"Arbres fruitiers,Arbres fruitiers,Arbustes,Coniferes,Graminees,Plantes a massifs,Rosiers","commune":"SECLIN","societe":"LES PEPINIERES DE SECLIN","pointVente":"Vente a la ferme","voie":"ROUTE DE LILLE(RD549)","horaires":"Lundi, Mardi, Mercredi, Jeudi, Vendredi de 08h30 a 12h00\n Lundi, Mardi, Mercredi, Jeudi, Vendredi de 13h00 a 18h00\n Samedi de 09h30 a 12h00","lat":50.5627,"lng":3.03956},{"id":43,"produits":"Oeufs","commune":"LINSELLES","societe":"SYLVAIN CASIEZ","pointVente":"Vente a la ferme","voie":"CHEMIN DES BOIS BLANCS","horaires":"Dimanche de 10h00 a 12h30\n Lundi, Mardi, Mercredi, Jeudi, Vendredi, Samedi de 10h00 a 12h30\n Lundi, Mardi, Mercredi, Jeudi, Vendredi, Samedi de 15h00 a 19h30","lat":50.7384,"lng":3.09721}]